{"type": "FeatureCollection", "features": [{"type": "Feature", "properties": {"school": "AKINS", "level": "hs", "address": "10701 S. First St", "geocoded": true}, "geometry": {"type": "Point", "coordinates": [-97.801519904056, 30.152062350206]}}, {"type": "Feature", "properties": {"school": "ANDERSON", "level": "hs", "address": "8403 Mesa Dr", "geocoded": true}, "geometry": {"type": "Point", "coordinates": [-97.754708580327, 30.375411634151]}}, {"type": "Feature", "properties": {"school": "AUSTIN", "level": "hs", "address": "1715 W. Cesar Chavez St", "geocoded": true}, "geometry": {"type": "Point", "coordinates": [-97.764723797771, 30.272524638341]}}, {"type": "Feature", "properties": {"school": "BOWIE", "level": "hs", "address": "4103 W. Slaughter Ln", "geocoded": true}, "geometry": {"type": "Point", "coordinates": [-97.856938104584, 30.189085305358]}}, {"type": "Feature", "properties": {"school": "CROCKETT", "level": "hs", "address": "5601 Menchaca Rd", "geocoded": true}, "geometry": {"type": "Point", "coordinates": [-97.797754733693, 30.215281659924]}}, {"type": "Feature", "properties": {"school": "EASTSIDE", "level": "hs", "address": "900 Thompson St", "geocoded": true}, "geometry": {"type": "Point", "coordinates": [-97.708549124295, 30.270147963632]}}, {"type": "Feature", "properties": {"school": "LBJ", "level": "hs", "address": "7309 Lazy Creek Dr", "geocoded": true}, "geometry": {"type": "Point", "coordinates": [-97.658128301747, 30.31311928454]}}, {"type": "Feature", "properties": {"school": "MCCALLUM", "level": "hs", "address": "5600 Sunshine Dr", "geocoded": true}, "geometry": {"type": "Point", "coordinates": [-97.729729846018, 30.325453049033]}}, {"type": "Feature", "properties": {"school": "NAVARRO", "level": "hs", "address": "1201 Payton Gin Rd", "geocoded": true}, "geometry": {"type": "Point", "coordinates": [-97.706184802352, 30.360520504352]}}, {"type": "Feature", "properties": {"school": "NORTHEAST", "level": "hs", "address": "7104 Berkman Dr", "geocoded": true}, "geometry": {"type": "Point", "coordinates": [-97.689650098112, 30.324071498268]}}, {"type": "Feature", "properties": {"school": "TRAVIS", "level": "hs", "address": "1211 E. Oltorf St", "geocoded": true}, "geometry": {"type": "Point", "coordinates": [-97.743598514071, 30.234540554762]}}]}