{"type": "FeatureCollection", "features": [{"type": "Feature", "properties": {"school": "AKINS", "level": "hs", "address": "10701 S 1ST ST", "geocoded": true}, "geometry": {"type": "Point", "coordinates": [-97.80093292234625, 30.149091012414875]}}, {"type": "Feature", "properties": {"school": "ANDERSON", "level": "hs", "address": "8403 MESA DR", "geocoded": true}, "geometry": {"type": "Point", "coordinates": [-97.75319279642258, 30.375660275957703]}}, {"type": "Feature", "properties": {"school": "AUSTIN", "level": "hs", "address": "1715 W CESAR CHAVEZ ST", "geocoded": true}, "geometry": {"type": "Point", "coordinates": [-97.7671609391197, 30.273816057869517]}}, {"type": "Feature", "properties": {"school": "BOWIE", "level": "hs", "address": "4103 W SLAUGHTER LN", "geocoded": true}, "geometry": {"type": "Point", "coordinates": [-97.85873787913266, 30.18763583225091]}}, {"type": "Feature", "properties": {"school": "CROCKETT", "level": "hs", "address": "5601 MANCHACA RD", "geocoded": true}, "geometry": {"type": "Point", "coordinates": [-97.79697421060236, 30.2139269004631]}}, {"type": "Feature", "properties": {"school": "EASTSIDE", "level": "hs", "address": "1012 ARTHUR STILES RD", "geocoded": true}, "geometry": {"type": "Point", "coordinates": [-97.6812845977287, 30.25826548911941]}}, {"type": "Feature", "properties": {"school": "LBJ", "level": "hs", "address": "7309 LAZY CREEK DR", "geocoded": true}, "geometry": {"type": "Point", "coordinates": [-97.65667500888671, 30.313050716221987]}}, {"type": "Feature", "properties": {"school": "MCCALLUM", "level": "hs", "address": "5600 SUNSHINE DR", "geocoded": true}, "geometry": {"type": "Point", "coordinates": [-97.73028905189385, 30.325808756327568]}}, {"type": "Feature", "properties": {"school": "NAVARRO", "level": "hs", "address": "1201 PAYTON GIN RD", "geocoded": true}, "geometry": {"type": "Point", "coordinates": [-97.70826309037854, 30.360437009539645]}}, {"type": "Feature", "properties": {"school": "NORTHEAST", "level": "hs", "address": "7104 BERKMAN DR", "geocoded": true}, "geometry": {"type": "Point", "coordinates": [-97.69117185451164, 30.3241494776097]}}, {"type": "Feature", "properties": {"school": "TRAVIS", "level": "hs", "address": "1211 E OLTORF ST", "geocoded": true}, "geometry": {"type": "Point", "coordinates": [-97.74427433160963, 30.233763506178544]}}]}