{"type": "FeatureCollection", "features": [{"type": "Feature", "properties": {"school": "ALLISON", "level": "es", "address": "515 VARGAS RD", "geocoded": true}, "geometry": {"type": "Point", "coordinates": [-97.69160480909507, 30.23604023987282]}}, {"type": "Feature", "properties": {"school": "ANDREWS", "level": "es", "address": "6801 NORTHEAST DR", "geocoded": true}, "geometry": {"type": "Point", "coordinates": [-97.67979151551677, 30.31771564056664]}}, {"type": "Feature", "properties": {"school": "BALDWIN", "level": "es", "address": "12200 MERIDIAN PARK BLVD", "geocoded": true}, "geometry": {"type": "Point", "coordinates": [-97.92304164649353, 30.18510735914213]}}, {"type": "Feature", "properties": {"school": "BARANOFF", "level": "es", "address": "12009 BUCKINGHAM GATE RD", "geocoded": true}, "geometry": {"type": "Point", "coordinates": [-97.8520399462433, 30.153826727214486]}}, {"type": "Feature", "properties": {"school": "BARTON HILLS", "level": "es", "address": "2108 BARTON HILLS DR", "geocoded": true}, "geometry": {"type": "Point", "coordinates": [-97.78333277568117, 30.254371121205686]}}, {"type": "Feature", "properties": {"school": "BEAR CREEK", "level": "es", "address": "12801 ESCARPMENT BLVD", "geocoded": true}, "geometry": {"type": "Point", "coordinates": [-97.9103373252304, 30.170180567337603]}}, {"type": "Feature", "properties": {"school": "BLACKSHEAR", "level": "es", "address": "1712 E 11TH ST", "geocoded": true}, "geometry": {"type": "Point", "coordinates": [-97.72194227041179, 30.2669952645982]}}, {"type": "Feature", "properties": {"school": "BLANTON", "level": "es", "address": "5408 WESTMINSTER DR", "geocoded": true}, "geometry": {"type": "Point", "coordinates": [-97.69019660997613, 30.306889987764503]}}, {"type": "Feature", "properties": {"school": "BLAZIER", "level": "es", "address": "8601 VERTEX BLVD", "geocoded": true}, "geometry": {"type": "Point", "coordinates": [-97.75156205373574, 30.155959554043722]}}, {"type": "Feature", "properties": {"school": "BOONE", "level": "es", "address": "8101 CROFTWOOD DR", "geocoded": true}, "geometry": {"type": "Point", "coordinates": [-97.840702585105, 30.204012871003616]}}, {"type": "Feature", "properties": {"school": "BRENTWOOD", "level": "es", "address": "512 E HUNTLAND DR", "geocoded": true}, "geometry": {"type": "Point", "coordinates": [-97.73145886786074, 30.339805136177308]}}, {"type": "Feature", "properties": {"school": "BROWN", "level": "es", "address": "7801 GUADALUPE ST", "geocoded": true}, "geometry": {"type": "Point", "coordinates": [-97.70909434622807, 30.344817756114445]}}, {"type": "Feature", "properties": {"school": "CAMPBELL", "level": "es", "address": "2613 ROGERS AVE", "geocoded": true}, "geometry": {"type": "Point", "coordinates": [-97.71387677070787, 30.282545366499793]}}, {"type": "Feature", "properties": {"school": "CASEY", "level": "es", "address": "9400 TEXAS OAKS DR", "geocoded": false}, "geometry": {"type": "Point", "coordinates": [-97.8147259869446, 30.176912028174016]}}, {"type": "Feature", "properties": {"school": "CASIS", "level": "es", "address": "2710 EXPOSITION BLVD", "geocoded": true}, "geometry": {"type": "Point", "coordinates": [-97.7655162059748, 30.304359655917022]}}, {"type": "Feature", "properties": {"school": "CLAYTON", "level": "es", "address": "7525 LA CROSSE AVE", "geocoded": false}, "geometry": {"type": "Point", "coordinates": [-97.90645207377601, 30.1948546710318]}}, {"type": "Feature", "properties": {"school": "COOK", "level": "es", "address": "1511 CRIPPLE CREEK DR", "geocoded": false}, "geometry": {"type": "Point", "coordinates": [-97.70467292712519, 30.37785965488579]}}, {"type": "Feature", "properties": {"school": "COWAN", "level": "es", "address": "2817 KENTISH DR", "geocoded": true}, "geometry": {"type": "Point", "coordinates": [-97.8334423346191, 30.18868918117847]}}, {"type": "Feature", "properties": {"school": "CUNNINGHAM", "level": "es", "address": "2200 BERKELEY AVE", "geocoded": true}, "geometry": {"type": "Point", "coordinates": [-97.80603290106723, 30.21022661139745]}}, {"type": "Feature", "properties": {"school": "DAVIS", "level": "es", "address": "5214 DUVAL RD", "geocoded": true}, "geometry": {"type": "Point", "coordinates": [-97.74135005858687, 30.418624483823727]}}, {"type": "Feature", "properties": {"school": "DOSS", "level": "es", "address": "7005 NORTHLEDGE DR", "geocoded": true}, "geometry": {"type": "Point", "coordinates": [-97.76234071411585, 30.356459247332438]}}, {"type": "Feature", "properties": {"school": "GALINDO", "level": "es", "address": "3800 S 2ND ST", "geocoded": true}, "geometry": {"type": "Point", "coordinates": [-97.77181924249491, 30.229529615644108]}}, {"type": "Feature", "properties": {"school": "GRAHAM", "level": "es", "address": "11211 TOM ADAMS DR", "geocoded": true}, "geometry": {"type": "Point", "coordinates": [-97.66890444003418, 30.37235934492284]}}, {"type": "Feature", "properties": {"school": "GUERRERO THOMPSON", "level": "es", "address": "102 E RUNDERG LN", "geocoded": true}, "geometry": {"type": "Point", "coordinates": [-97.69154757094654, 30.364070271480024]}}, {"type": "Feature", "properties": {"school": "GULLETT", "level": "es", "address": "6310 TREADWELL BLVD", "geocoded": true}, "geometry": {"type": "Point", "coordinates": [-97.74865361751851, 30.343713817267297]}}, {"type": "Feature", "properties": {"school": "HARRIS", "level": "es", "address": "1711 WHELESS LN", "geocoded": true}, "geometry": {"type": "Point", "coordinates": [-97.69105519890566, 30.314900045210106]}}, {"type": "Feature", "properties": {"school": "HART", "level": "es", "address": "8301 FURNESS", "geocoded": true}, "geometry": {"type": "Point", "coordinates": [-97.68864322364524, 30.342467538544444]}}, {"type": "Feature", "properties": {"school": "HIGHLAND PARK", "level": "es", "address": "4900 FAIRVIEW DR", "geocoded": true}, "geometry": {"type": "Point", "coordinates": [-97.75984272162016, 30.330357551601722]}}, {"type": "Feature", "properties": {"school": "HILL", "level": "es", "address": "8601 TALLWOOD DR", "geocoded": true}, "geometry": {"type": "Point", "coordinates": [-97.74861111005764, 30.376596397667708]}}, {"type": "Feature", "properties": {"school": "HOUSTON", "level": "es", "address": "5409 PONCIANA DR", "geocoded": true}, "geometry": {"type": "Point", "coordinates": [-97.75507843282799, 30.19775848735796]}}, {"type": "Feature", "properties": {"school": "JORDAN", "level": "es", "address": "6711 JOHNNY MORRIS RD", "geocoded": true}, "geometry": {"type": "Point", "coordinates": [-97.64692753064227, 30.30085518343175]}}, {"type": "Feature", "properties": {"school": "KIKER", "level": "es", "address": "5913 LA CROSSE AVE", "geocoded": true}, "geometry": {"type": "Point", "coordinates": [-97.88124512297463, 30.19154588687702]}}, {"type": "Feature", "properties": {"school": "KOCUREK", "level": "es", "address": "9800 CURLEW DR", "geocoded": true}, "geometry": {"type": "Point", "coordinates": [-97.83499013582077, 30.178052554956107]}}, {"type": "Feature", "properties": {"school": "LANGFORD", "level": "es", "address": "2206 BLUE MEADOW DR", "geocoded": false}, "geometry": {"type": "Point", "coordinates": [-97.76350200295695, 30.182089627434276]}}, {"type": "Feature", "properties": {"school": "LEE", "level": "es", "address": "3308 HAMPTON RD", "geocoded": true}, "geometry": {"type": "Point", "coordinates": [-97.72740536924772, 30.29339054334135]}}, {"type": "Feature", "properties": {"school": "LINDER", "level": "es", "address": "2800 METCALFE RD", "geocoded": true}, "geometry": {"type": "Point", "coordinates": [-97.73768974446863, 30.224452225968204]}}, {"type": "Feature", "properties": {"school": "MATHEWS", "level": "es", "address": "906 W LYNN ST", "geocoded": true}, "geometry": {"type": "Point", "coordinates": [-97.76091500719212, 30.27834102673099]}}, {"type": "Feature", "properties": {"school": "MCBEE", "level": "es", "address": "1101 W BRAKER LN", "geocoded": true}, "geometry": {"type": "Point", "coordinates": [-97.6911022074948, 30.38322343100951]}}, {"type": "Feature", "properties": {"school": "MENCHACA", "level": "es", "address": "1218 W FM 1626", "geocoded": true}, "geometry": {"type": "Point", "coordinates": [-97.83366590082748, 30.1415464944651]}}, {"type": "Feature", "properties": {"school": "MILLS", "level": "es", "address": "6201 DAVIS LN", "geocoded": true}, "geometry": {"type": "Point", "coordinates": [-97.87822138627736, 30.21094645553435]}}, {"type": "Feature", "properties": {"school": "NORMAN SIMS", "level": "es", "address": "4001 TANNEHILL LN", "geocoded": true}, "geometry": {"type": "Point", "coordinates": [-97.67393697303554, 30.27836892548502]}}, {"type": "Feature", "properties": {"school": "OAK HILL", "level": "es", "address": "6101 PATTON RANCH RD", "geocoded": true}, "geometry": {"type": "Point", "coordinates": [-97.85886093119558, 30.23811300183151]}}, {"type": "Feature", "properties": {"school": "ORTEGA", "level": "es", "address": "1135 GARLAND AVE", "geocoded": true}, "geometry": {"type": "Point", "coordinates": [-97.68433328000359, 30.27001639599781]}}, {"type": "Feature", "properties": {"school": "OVERTON", "level": "es", "address": "7201 COLONY LOOP DR", "geocoded": true}, "geometry": {"type": "Point", "coordinates": [-97.63603688697783, 30.300398892972545]}}, {"type": "Feature", "properties": {"school": "PADRON", "level": "es", "address": "2011 W RUNDBERG LN", "geocoded": false}, "geometry": {"type": "Point", "coordinates": [-97.72024428098356, 30.373623618694264]}}, {"type": "Feature", "properties": {"school": "PATTON", "level": "es", "address": "6001 WESTCREEK DR", "geocoded": true}, "geometry": {"type": "Point", "coordinates": [-97.84534109648588, 30.231735767901505]}}, {"type": "Feature", "properties": {"school": "PECAN SPRINGS", "level": "es", "address": "3100 ROGGE LN", "geocoded": true}, "geometry": {"type": "Point", "coordinates": [-97.67681530007643, 30.303030273109066]}}, {"type": "Feature", "properties": {"school": "PEREZ", "level": "es", "address": "7500 S PLEASANT VALLEY RD", "geocoded": false}, "geometry": {"type": "Point", "coordinates": [-97.75642010668572, 30.17023288186152]}}, {"type": "Feature", "properties": {"school": "PILLOW", "level": "es", "address": "3025 CROSSCREEK DR", "geocoded": true}, "geometry": {"type": "Point", "coordinates": [-97.73315048347966, 30.369164154326857]}}, {"type": "Feature", "properties": {"school": "PLEASANT HILL", "level": "es", "address": "6405 CIRCLE S RD", "geocoded": true}, "geometry": {"type": "Point", "coordinates": [-97.77620291432046, 30.19639325850744]}}, {"type": "Feature", "properties": {"school": "REILLY", "level": "es", "address": "405 DENSON DR", "geocoded": true}, "geometry": {"type": "Point", "coordinates": [-97.7199661452161, 30.328242742111723]}}, {"type": "Feature", "properties": {"school": "RODRIGUEZ", "level": "es", "address": "4400 FRANKLIN PARK DR", "geocoded": true}, "geometry": {"type": "Point", "coordinates": [-97.74734745432173, 30.200696528305674]}}, {"type": "Feature", "properties": {"school": "ST ELMO", "level": "es", "address": "600 W ST ELMO RD", "geocoded": true}, "geometry": {"type": "Point", "coordinates": [-97.7735761379677, 30.221843506164113]}}, {"type": "Feature", "properties": {"school": "SUMMITT", "level": "es", "address": "12207 BRIGADOON LN", "geocoded": true}, "geometry": {"type": "Point", "coordinates": [-97.71914130679193, 30.418732272154976]}}, {"type": "Feature", "properties": {"school": "TRAVIS HEIGHTS", "level": "es", "address": "2010 ALAMEDA DR", "geocoded": true}, "geometry": {"type": "Point", "coordinates": [-97.74590534421623, 30.241448414550135]}}, {"type": "Feature", "properties": {"school": "WALNUT CREEK", "level": "es", "address": "401 W BRAKER LN", "geocoded": true}, "geometry": {"type": "Point", "coordinates": [-97.6838365294089, 30.379748597181532]}}, {"type": "Feature", "properties": {"school": "WILLIAMS", "level": "es", "address": "500 MAIRO ST", "geocoded": true}, "geometry": {"type": "Point", "coordinates": [-97.79114487245657, 30.181029977528276]}}, {"type": "Feature", "properties": {"school": "WOOLDRIDGE", "level": "es", "address": "1412 NORSEMAN TER", "geocoded": true}, "geometry": {"type": "Point", "coordinates": [-97.70972025996045, 30.364963768770192]}}, {"type": "Feature", "properties": {"school": "ZAVALA", "level": "es", "address": "310 ROBERT MARTINEZ JR ST", "geocoded": true}, "geometry": {"type": "Point", "coordinates": [-97.72000314181209, 30.258043126258407]}}, {"type": "Feature", "properties": {"school": "ZILKER", "level": "es", "address": "1900 BLUEBONNET LN", "geocoded": true}, "geometry": {"type": "Point", "coordinates": [-97.77413157736257, 30.252755084981303]}}]}