{"type": "FeatureCollection", "features": [{"type": "Feature", "properties": {"school": "ALLISON", "level": "es", "address": "515 Vargas Rd", "geocoded": true}, "geometry": {"type": "Point", "coordinates": [-97.691155434335, 30.237371710899]}}, {"type": "Feature", "properties": {"school": "ANDREWS", "level": "es", "address": "12100 Tech Ridge Blvd", "geocoded": true}, "geometry": {"type": "Point", "coordinates": [-97.761239890534, 30.431484989378]}}, {"type": "Feature", "properties": {"school": "BALDWIN", "level": "es", "address": "12200 Meridian Park Blvd", "geocoded": true}, "geometry": {"type": "Point", "coordinates": [-97.921979600617, 30.185344169456]}}, {"type": "Feature", "properties": {"school": "BARANOFF", "level": "es", "address": "12009 Buckingham Gate Blvd", "geocoded": true}, "geometry": {"type": "Point", "coordinates": [-97.853320014628, 30.153778225105]}}, {"type": "Feature", "properties": {"school": "BARTON HILLS", "level": "es", "address": "2108 Barton Hills Dr", "geocoded": true}, "geometry": {"type": "Point", "coordinates": [-97.783517850684, 30.253413651725]}}, {"type": "Feature", "properties": {"school": "BEAR CREEK", "level": "es", "address": "9001 Bear Creek Dr", "geocoded": true}, "geometry": {"type": "Point", "coordinates": [-97.94433790704, 30.184446272176]}}, {"type": "Feature", "properties": {"school": "BLACKSHEAR", "level": "es", "address": "1712 E 11th St", "geocoded": true}, "geometry": {"type": "Point", "coordinates": [-97.722332750723, 30.266744883775]}}, {"type": "Feature", "properties": {"school": "BLANTON", "level": "es", "address": "5408 Westminster Dr", "geocoded": true}, "geometry": {"type": "Point", "coordinates": [-97.68950649153, 30.306232935375]}}, {"type": "Feature", "properties": {"school": "BLAZIER", "level": "es", "address": "8601 Vertex Blvd", "geocoded": true}, "geometry": {"type": "Point", "coordinates": [-97.752896567466, 30.156187788219]}}, {"type": "Feature", "properties": {"school": "BOONE", "level": "es", "address": "8101 Croftwood Dr", "geocoded": true}, "geometry": {"type": "Point", "coordinates": [-97.840841586486, 30.204025274275]}}, {"type": "Feature", "properties": {"school": "BRENTWOOD", "level": "es", "address": "6700 Yates Ave", "geocoded": true}, "geometry": {"type": "Point", "coordinates": [-97.733205478721, 30.339702602946]}}, {"type": "Feature", "properties": {"school": "BROWN", "level": "es", "address": "505 W Saint Johns Ave", "geocoded": true}, "geometry": {"type": "Point", "coordinates": [-97.713412396444, 30.3372651693]}}, {"type": "Feature", "properties": {"school": "CAMPBELL", "level": "es", "address": "2613 Rogge Ln", "geocoded": true}, "geometry": {"type": "Point", "coordinates": [-97.68309608157, 30.305330616356]}}, {"type": "Feature", "properties": {"school": "CASEY", "level": "es", "address": "11202 Rocky River Rd", "geocoded": false}, "geometry": {"type": "Point", "coordinates": [-97.80741923540691, 30.16675888785042]}}, {"type": "Feature", "properties": {"school": "CASIS", "level": "es", "address": "2710 Exposition Blvd", "geocoded": true}, "geometry": {"type": "Point", "coordinates": [-97.764476719326, 30.303594794549]}}, {"type": "Feature", "properties": {"school": "CLAYTON", "level": "es", "address": "7525 W William Cannon Dr", "geocoded": false}, "geometry": {"type": "Point", "coordinates": [-97.90102553983051, 30.200694037088454]}}, {"type": "Feature", "properties": {"school": "COOK", "level": "es", "address": "2433 Aileen St", "geocoded": false}, "geometry": {"type": "Point", "coordinates": [-97.70771640360654, 30.37839161515617]}}, {"type": "Feature", "properties": {"school": "COWAN", "level": "es", "address": "2817 Kentish Dr", "geocoded": true}, "geometry": {"type": "Point", "coordinates": [-97.83159952291, 30.188791218664]}}, {"type": "Feature", "properties": {"school": "CUNNINGHAM", "level": "es", "address": "2200 Berkeley Ave", "geocoded": true}, "geometry": {"type": "Point", "coordinates": [-97.805530050231, 30.209267705673]}}, {"type": "Feature", "properties": {"school": "DAVIS", "level": "es", "address": "5214 Duval Rd", "geocoded": true}, "geometry": {"type": "Point", "coordinates": [-97.741862216537, 30.417499448212]}}, {"type": "Feature", "properties": {"school": "DOSS", "level": "es", "address": "7005 Northledge Dr", "geocoded": true}, "geometry": {"type": "Point", "coordinates": [-97.76370503114, 30.356145744928]}}, {"type": "Feature", "properties": {"school": "GALINDO", "level": "es", "address": "3800 S 2nd St", "geocoded": true}, "geometry": {"type": "Point", "coordinates": [-97.77092161503, 30.22935858222]}}, {"type": "Feature", "properties": {"school": "GRAHAM", "level": "es", "address": "11211 Tom Adams Dr", "geocoded": true}, "geometry": {"type": "Point", "coordinates": [-97.669082272167, 30.373536526455]}}, {"type": "Feature", "properties": {"school": "GUERRERO THOMPSON", "level": "es", "address": "102 E Rundberg Ln", "geocoded": true}, "geometry": {"type": "Point", "coordinates": [-97.69327071634, 30.360893448557]}}, {"type": "Feature", "properties": {"school": "GULLETT", "level": "es", "address": "6310 Treadwell Blvd", "geocoded": true}, "geometry": {"type": "Point", "coordinates": [-97.748369296889, 30.343056189039]}}, {"type": "Feature", "properties": {"school": "HARRIS", "level": "es", "address": "1711 Wheless Ln", "geocoded": true}, "geometry": {"type": "Point", "coordinates": [-97.691451312947, 30.315518988655]}}, {"type": "Feature", "properties": {"school": "HART", "level": "es", "address": "8301 Furness Dr", "geocoded": true}, "geometry": {"type": "Point", "coordinates": [-97.68968346397, 30.342810230947]}}, {"type": "Feature", "properties": {"school": "HIGHLAND PARK", "level": "es", "address": "4900 Fairview Dr", "geocoded": true}, "geometry": {"type": "Point", "coordinates": [-97.759637779417, 30.329847775873]}}, {"type": "Feature", "properties": {"school": "HILL", "level": "es", "address": "8601 Tallwood Dr", "geocoded": true}, "geometry": {"type": "Point", "coordinates": [-97.749104359827, 30.377230415069]}}, {"type": "Feature", "properties": {"school": "HOUSTON", "level": "es", "address": "5409 Ponciana Dr", "geocoded": true}, "geometry": {"type": "Point", "coordinates": [-97.755312289259, 30.198344849908]}}, {"type": "Feature", "properties": {"school": "JORDAN", "level": "es", "address": "6711 Johnny Morris Rd", "geocoded": true}, "geometry": {"type": "Point", "coordinates": [-97.648051929391, 30.300379483019]}}, {"type": "Feature", "properties": {"school": "KIKER", "level": "es", "address": "5913 La Crosse Ave", "geocoded": true}, "geometry": {"type": "Point", "coordinates": [-97.881618594012, 30.192229982706]}}, {"type": "Feature", "properties": {"school": "KOCUREK", "level": "es", "address": "9700 Brodie Ln", "geocoded": true}, "geometry": {"type": "Point", "coordinates": [-97.847630770187, 30.187196855082]}}, {"type": "Feature", "properties": {"school": "LANGFORD", "level": "es", "address": "2206 Pleasant Hill Dr", "geocoded": false}, "geometry": {"type": "Point", "coordinates": [-97.76257378110084, 30.183779139758176]}}, {"type": "Feature", "properties": {"school": "LEE", "level": "es", "address": "3308 Hampton Rd", "geocoded": true}, "geometry": {"type": "Point", "coordinates": [-97.727269789759, 30.29310785718]}}, {"type": "Feature", "properties": {"school": "LINDER", "level": "es", "address": "2800 Metcalfe Rd", "geocoded": true}, "geometry": {"type": "Point", "coordinates": [-97.736806655945, 30.226207115188]}}, {"type": "Feature", "properties": {"school": "MATHEWS", "level": "es", "address": "906 W Lynn St", "geocoded": true}, "geometry": {"type": "Point", "coordinates": [-97.760884584475, 30.277683708862]}}, {"type": "Feature", "properties": {"school": "MCBEE", "level": "es", "address": "1001 W Braker Ln", "geocoded": true}, "geometry": {"type": "Point", "coordinates": [-97.672511318209, 30.375347897899]}}, {"type": "Feature", "properties": {"school": "MENCHACA", "level": "es", "address": "12120 Manchaca Rd", "geocoded": true}, "geometry": {"type": "Point", "coordinates": [-97.833020675341, 30.141861196054]}}, {"type": "Feature", "properties": {"school": "MILLS", "level": "es", "address": "6201 Davis Ln", "geocoded": true}, "geometry": {"type": "Point", "coordinates": [-97.876656940771, 30.211574480111]}}, {"type": "Feature", "properties": {"school": "NORMAN SIMS", "level": "es", "address": "4001 Tannehill Ln", "geocoded": true}, "geometry": {"type": "Point", "coordinates": [-97.675907640301, 30.276223937753]}}, {"type": "Feature", "properties": {"school": "OAK HILL", "level": "es", "address": "6101 Patton Ranch Rd", "geocoded": true}, "geometry": {"type": "Point", "coordinates": [-97.859094068495, 30.238845851279]}}, {"type": "Feature", "properties": {"school": "ORTEGA", "level": "es", "address": "1135 Garland Ave", "geocoded": true}, "geometry": {"type": "Point", "coordinates": [-97.68483126662, 30.270513518312]}}, {"type": "Feature", "properties": {"school": "OVERTON", "level": "es", "address": "7201 Colony Loop Dr", "geocoded": true}, "geometry": {"type": "Point", "coordinates": [-97.637304287323, 30.302408872078]}}, {"type": "Feature", "properties": {"school": "PADRON", "level": "es", "address": "2010 El Paseo St", "geocoded": false}, "geometry": {"type": "Point", "coordinates": [-97.71979990691068, 30.38863881449792]}}, {"type": "Feature", "properties": {"school": "PATTON", "level": "es", "address": "6001 Westcreek Dr", "geocoded": true}, "geometry": {"type": "Point", "coordinates": [-97.845902028598, 30.232607837901]}}, {"type": "Feature", "properties": {"school": "PECAN SPRINGS", "level": "es", "address": "3100 Rogge Ln", "geocoded": true}, "geometry": {"type": "Point", "coordinates": [-97.676695436013, 30.302423884582]}}, {"type": "Feature", "properties": {"school": "PEREZ", "level": "es", "address": "7500 S Pleasant Valley Rd", "geocoded": false}, "geometry": {"type": "Point", "coordinates": [-97.75121164006792, 30.169671869170283]}}, {"type": "Feature", "properties": {"school": "PILLOW", "level": "es", "address": "3025 Crosscreek Dr", "geocoded": true}, "geometry": {"type": "Point", "coordinates": [-97.732710360948, 30.369313640195]}}, {"type": "Feature", "properties": {"school": "PLEASANT HILL", "level": "es", "address": "211 E William Cannon Dr", "geocoded": true}, "geometry": {"type": "Point", "coordinates": [-97.777467194202, 30.19257382618]}}, {"type": "Feature", "properties": {"school": "REILLY", "level": "es", "address": "405 Denson Dr", "geocoded": true}, "geometry": {"type": "Point", "coordinates": [-97.719769752937, 30.328489405302]}}, {"type": "Feature", "properties": {"school": "RODRIGUEZ", "level": "es", "address": "4400 Franklin Park Dr", "geocoded": true}, "geometry": {"type": "Point", "coordinates": [-97.744767026668, 30.199310931599]}}, {"type": "Feature", "properties": {"school": "ST ELMO", "level": "es", "address": "600 W St Elmo Rd", "geocoded": true}, "geometry": {"type": "Point", "coordinates": [-97.77290403835, 30.221118728129]}}, {"type": "Feature", "properties": {"school": "SUMMITT", "level": "es", "address": "12207 Bell Avenue Dr", "geocoded": true}, "geometry": {"type": "Point", "coordinates": [-97.749887370587, 30.427529469127]}}, {"type": "Feature", "properties": {"school": "TRAVIS HEIGHTS", "level": "es", "address": "2010 Alameda Dr", "geocoded": true}, "geometry": {"type": "Point", "coordinates": [-97.745626030637, 30.241289993168]}}, {"type": "Feature", "properties": {"school": "WALNUT CREEK", "level": "es", "address": "401 W Braker Ln", "geocoded": true}, "geometry": {"type": "Point", "coordinates": [-97.684323178232, 30.380647787739]}}, {"type": "Feature", "properties": {"school": "WILLIAMS", "level": "es", "address": "500 Mairo St", "geocoded": true}, "geometry": {"type": "Point", "coordinates": [-97.791069051211, 30.180440922647]}}, {"type": "Feature", "properties": {"school": "WOOLDRIDGE", "level": "es", "address": "1412 Norseman Trl", "geocoded": true}, "geometry": {"type": "Point", "coordinates": [-97.710382153157, 30.364523242673]}}, {"type": "Feature", "properties": {"school": "ZAVALA", "level": "es", "address": "310 Robert T Martinez Jr St", "geocoded": true}, "geometry": {"type": "Point", "coordinates": [-97.719785100373, 30.257901567854]}}, {"type": "Feature", "properties": {"school": "ZILKER", "level": "es", "address": "1900 Bluebonnet Ln", "geocoded": true}, "geometry": {"type": "Point", "coordinates": [-97.773545075169, 30.252610146469]}}]}